시설명,시도명,시군구명,소재지도로명주소,소재지지번주소,위도,경도,전화번호,설치년도,설치목적,데이터기준일자,제공기관코드,제공기관명
서창배수펌프장,충청남도,논산시,충청남도 논산시 강경읍 금백로 101-9,충청남도 논산시 강경읍 황산리198-3,36.16214786,127.0120347,041-746-6447,1992.0,우천시 펌프장 부근 하천 방류,2024-08-09,4540000,충청남도 논산시
동흥배수펌프장,충청남도,논산시,충청남도 논산시 강경읍 금백로175번길 35,충청남도 논산시 강경읍 동흥리128-8,36.16638705,127.0146269,041-746-6447,1997.0,우천시 펌프장 부근 하천 방류,2024-08-09,4540000,충청남도 논산시
지산배수펌프장,충청남도,논산시,충청남도 논산시 지산길 48,충청남도 논산시 지산동828,36.20825756,127.1149246,041-746-6449,1997.0,우천시 펌프장 부근 하천 방류,2024-08-09,4540000,충청남도 논산시
낭청배수펌프장,충청남도,논산시,충청남도 논산시 강경읍 계백로 7,충청남도 논산시 강경읍 채산리516-15,36.14790639,127.0063792,041-746-6450,1999.0,우천시 펌프장 부근 하천 방류,2024-08-09,4540000,충청남도 논산시
등화배수펌프장,충청남도,논산시,충청남도 논산시 강변로 309-97,충청남도 논산시 부창동567,36.19984546,127.0704181,041-746-6446,2001.0,우천시 펌프장 부근 하천 방류,2024-08-09,4540000,충청남도 논산시
방축배수펌프장,충청남도,논산시,충청남도 논산시 채운면 계백로499번길 96-66,충청남도 논산시 채운면 화산리 190-5,36.1827244,127.0540151,041-746-6446,2017.0,우천시 펌프장 부근 하천 방류,2024-08-09,4540000,충청남도 논산시
대교배수펌프장,충청남도,논산시,충청남도 논산시 강변로 474-10,충청남도 논산시 대교동210,36.21272904,127.0921975,041-746-6449,2018.0,우천시 펌프장 부근 하천 방류,2024-08-09,4540000,충청남도 논산시
유등배수펌프장,경상북도,청도군,,경상북도 청도군 화양읍 유등리 1713-1,35.6720321,128.6959178236,054-370-2325,2007.0,침수방지,2024-08-09,5190000,경상북도 청도군
춘천배수펌프장,부산광역시,해운대구,부산광역시 해운대구 해운대해변로209번가길32(우동),부산광역시 해운대구 우동 649-6,35.1591168,129.1573505,051-749-4871,1995.0,태풍 및 기습호우 발생 시 침수 피해 방지,2024-08-09,3330000,부산광역시 해운대구
송정배수펌프장,부산광역시,해운대구,부산광역시 해운대구 해운대로 1100(송정동) 부근,부산광역시 해운대구 송정동 138-3 부근,35.18395078,129.2011864,051-749-4871,2012.0,태풍 및 기습호우 발생 시 침수 피해 방지,2024-08-09,3330000,부산광역시 해운대구
송정게이트1 배수펌프장,부산광역시,해운대구,부산광역시 해운대구 송정강변로 51(송정동) 부근,부산광역시 해운대구 송정동 183-17번지 부근,35.18605628,129.2048672,051-749-4871,2013.0,태풍 및 기습호우 발생 시 침수 피해 방지,2024-08-09,3330000,부산광역시 해운대구
송정게이트2 배수펌프장,부산광역시,해운대구,부산광역시 해운대구 송정중앙로15번길 120-3 부근,부산광역시 해운대구 송정동 174-15 부근,35.1878893,129.2061014,051-749-4871,2013.0,태풍 및 기습호우 발생 시 침수 피해 방지,2024-08-09,3330000,부산광역시 해운대구
우동맨홀 배수펌프장,부산광역시,해운대구,부산광역시 해운대구 해운대해변로 197번가길 20-6(우동),부산광역시 해운대구 우동870-2,35.15980135,129.152904,051-749-4871,2013.0,태풍 및 기습호우 발생 시 침수 피해 방지,2024-08-09,3330000,부산광역시 해운대구
우2동 배수펌프장,부산광역시,해운대구,,부산광역시 해운대구 우동 1185-206번지,35.16954977,129.1390876,051-749-4871,1997.0,태풍 및 기습호우 발생 시 침수 피해 방지,2024-08-09,3330000,부산광역시 해운대구
재송1배수펌프장,부산광역시,해운대구,부산광역시 해운대구 수영강변대로 353(재송동),부산광역시 해운대구 재송동 1276,35.190134,129.1157834,051-749-4871,1992.0,태풍 및 기습호우 발생 시 침수 피해 방지,2024-08-09,3330000,부산광역시 해운대구
반여1배수펌프장,부산광역시,해운대구,부산광역시 해운대구 수영강변대로 606,부산광역시 해운대구 반여동 1502-67,35.2114392,129.1218042,051-749-4871,2002.0,태풍 및 기습호우 발생 시 침수 피해 방지,2024-08-09,3330000,부산광역시 해운대구
반여2배수펌프장,부산광역시,해운대구,부산광역시 해운대구 수영강변대로 527(반여동),부산광역시 해운대구 반여동 1502-16번지,35.20492279,129.1196129,051-749-4871,2003.0,태풍 및 기습호우 발생 시 침수 피해 방지,2024-08-09,3330000,부산광역시 해운대구
재송2배수펌프장,부산광역시,해운대구,부산광역시 해운대구 해운대로 89번가길 13(재송동) 부근,부산광역시 해운대구 재송동 188 부근,35.18944656,129.121561,051-749-4871,2004.0,태풍 및 기습호우 발생 시 침수 피해 방지,2024-08-09,3330000,부산광역시 해운대구
용천맨홀배수펌프장,부산광역시,해운대구,부산광역시 해운대구 수영강변대로 382(센텀피오레APT 앞),부산광역시 해운대구 재송동 1302번지 앞,35.19271178,129.1150835,051-749-4871,2020.0,태풍 및 기습호우 발생 시 침수 피해 방지,2024-08-09,3330000,부산광역시 해운대구
장위빗물펌프장,서울특별시,성북구,서울특별시 성북구 한천로 724,서울특별시 성북구 장위동 270-1,37.61881724,127.0558739,02-2241-6376,2004.0,침수방지,2024-08-08,3070000,서울특별시 성북구
석관빗물펌프장,서울특별시,성북구,서울특별시 성북구 한천로66길 203,서울특별시 성북구 석관동 134-2,37.61347394,127.0654917,02-2241-6371,2002.0,침수방지,2024-08-08,3070000,서울특별시 성북구
5일시장펌프장,전라남도,함평군,,전라남도 함평군 함평읍 기각리 264-1,35.06351118,126.5240035,061-320-1992,2021.0,침수방지,2024-08-09,4960000,전라남도 함평군
우시장펌프장,전라남도,함평군,,전라남도 함평군 함평읍 기각리 196-6,35.06200733,126.5266488,061-320-1992,1992.0,침수방지,2024-08-09,4960000,전라남도 함평군
나산펌프장,전라남도,함평군,,전라남도 함평군 나산면 삼축리 1213-14,35.1085788958,126.608370977,061-320-1992,2021.0,침수방지,2024-08-09,4960000,전라남도 함평군
원고막펌프장,전라남도,함평군,,전라남도 함평군 학교면 고막리 108-1,35.033390244,126.5923864723,061-320-1992,1985.0,침수방지,2024-08-09,4960000,전라남도 함평군
쌍교펌프장,전라남도,함평군,,전라남도 함평군 학교면 학교리 445-10,35.0185912404,126.5366577867,061-320-1992,1999.0,침수방지,2024-08-09,4960000,전라남도 함평군
신촌펌프장,전라남도,함평군,,전라남도 함평군 함평읍 기각리 189-7,35.0605982367,126.5273121793,061-320-1992,2011.0,침수방지,2024-08-09,4960000,전라남도 함평군
용산배수펌프장,전북특별자치도,남원시,,전북특별자치도 남원시 덕과면 용산리 1063-6,35.5503702583,127.3442496599,,2020.0,재해예방,2024-08-08,4701000,전북특별자치도 남원시
세전배수펌프장,전북특별자치도,남원시,전북특별자치도 남원시 송동면 노송로 150-151,전북특별자치도 남원시 송동면 세전리 1401-28,35.3108890117,127.3223165669,,,재해예방,2024-08-08,4701000,전북특별자치도 남원시
토계배수펌프장,충청북도,충주시,,충청북도 충주시 살미면 토계리 447,36.8983260061,127.9197934438,,2022.0,재난대응용,2024-07-31,4390000,충청북도 충주시
봉방 배수펌프장,충청북도,충주시,,충청북도 충주시 봉방동 546-3,36.98123293,127.8971978598,,1992.0,침수방지,2024-07-31,4390000,충청북도 충주시
용두 배수펌프장,충청북도,충주시,,충청북도 충주시 용두동 461-16,36.97162793,127.8891750185,,1992.0,침수방지,2024-07-31,4390000,충청북도 충주시
창동 배수펌프장,충청북도,충주시,,충청북도 충주시 중앙탑면 창동리 196,36.9858688716,127.8860862,,2000.0,침수방지,2024-07-31,4390000,충청북도 충주시
목계 배수펌프장,충청북도,충주시,,충청북도 충주시 엄정면 목계리 247,37.07695324,127.8860756,,2002.0,침수방지,2024-07-31,4390000,충청북도 충주시
칠금 간이배수펌프장,충청북도,충주시,,충청북도 충주시 칠금동 459-57,36.9877203016,127.8921634441,,1992.0,침수방지,2024-07-31,4390000,충청북도 충주시
만정 배수펌프장,충청북도,충주시,,충청북도 충주시 대소원면 검단리 73-2,36.96485699,127.8762794,,2010.0,침수방지,2024-07-31,4390000,충청북도 충주시
문산배수펌프장,경기도,파주시,경기도 파주시 문산읍 개포래로 88,경기도 파주시 문산읍 문산리 10-87,37.8568720637,126.7812473253,,2000.0,침수방지,2024-08-08,4060000,경기도 파주시
당동배수펌프장,경기도,파주시,경기도 파주시 문산읍 당동1로 39-65,경기도 파주시 문산읍 당동리 548,37.8604984623,126.7732393348,,2002.0,침수방지,2024-08-08,4060000,경기도 파주시
선유3배수펌프장,경기도,파주시,경기도 파주시 문산읍 통일로 1626-37,경기도 파주시 문산읍 선유리 1392-6,37.8538069555,126.7898128911,,2000.0,침수방지,2024-08-08,4060000,경기도 파주시
선유4배수펌프장,경기도,파주시,경기도 파주시 문산읍 독서울2길 46-94,경기도 파주시 문산읍 선유리 1176,37.860737571,126.8028153738,,2000.0,침수방지,2024-08-08,4060000,경기도 파주시
봉일천배수펌프장,경기도,파주시,경기도 파주시 조리읍 송비말길 79-48,경기도 파주시 조리읍 봉일천리 197-11,37.7443582422,126.8025988747,,2000.0,침수방지,2024-08-08,4060000,경기도 파주시
가월리배수펌프장,경기도,파주시,경기도 파주시 적성면 가월로 133-110,경기도 파주시 적성면 가월리 1126,37.9725233258,126.8985367744,,2008.0,침수방지,2024-08-08,4060000,경기도 파주시
두지배수펌프장,경기도,파주시,경기도 파주시 적성면 율곡로 1934,경기도 파주시 적성면 두지리 61-2,37.9679657897,126.8998184436,,2010.0,침수방지,2024-08-08,4060000,경기도 파주시
두포배수펌프장,경기도,파주시,경기도 파주시 파평면 파평산로 498-8,경기도 파주시 파평면 두포리 353-1,37.9031950607,126.8337057214,,2002.0,침수방지,2024-08-08,4060000,경기도 파주시
두포삼거리배수펌프장,경기도,파주시,경기도 파주시 파평면 파평산로 561,경기도 파주시 파평면 두포리 397-2,37.9045043117,126.8254911763,,2004.0,침수방지,2024-08-08,4060000,경기도 파주시
문발배수펌프장,경기도,파주시,경기도 파주시 직지길 457-50,경기도 파주시 문발동 647,37.7209758631,126.6882446154,,2012.0,침수방지,2024-08-08,4060000,경기도 파주시
운정배수펌프장,경기도,파주시,경기도 파주시 소리천로 215,경기도 파주시 와동동 1478,37.734355987,126.770377919,,2012.0,침수방지,2024-08-08,4060000,경기도 파주시
금촌기존배수펌프장,경기도,파주시,경기도 파주시 평화로 86,경기도 파주시 금촌동 366-1,37.765197605,126.7703410459,,1995.0,침수방지,2024-08-08,4060000,경기도 파주시
금촌2배수펌프장,경기도,파주시,경기도 파주시 강천길 58-98,경기도 파주시 금촌동 890,37.7607031686,126.762935853,,2000.0,침수방지,2024-08-08,4060000,경기도 파주시
금촌제1교배수펌프장,경기도,파주시,경기도 파주시 새꽃로 243,경기도 파주시 아동동 311-3,37.7674816752,126.7787912124,,2008.0,침수방지,2024-08-08,4060000,경기도 파주시
문산2간이배수펌프장,경기도,파주시,,경기도 파주시 문산읍 문산리 140-40,37.8590308649,126.7767317116,,2001.0,침수방지,2024-08-08,4060000,경기도 파주시
문산5간이배수펌프장,경기도,파주시,경기도 파주시 문산읍 개포래로 34,경기도 파주시 문산읍 문산리 35-8,37.852754329,126.7848979142,,1995.0,침수방지,2024-08-08,4060000,경기도 파주시
문산4-1간이배수펌프장,경기도,파주시,경기도 파주시 문산읍 문향로68번길 43-3,경기도 파주시 문산읍 문산리 17-23,37.8562611924,126.7867332134,,2002.0,침수방지,2024-08-08,4060000,경기도 파주시
문산4-2간이배수펌프장,경기도,파주시,경기도 파주시 문산읍 문향로68번길 43-3,경기도 파주시 문산읍 문산리 17-23,37.8562611924,126.7867332134,,2002.0,침수방지,2024-08-08,4060000,경기도 파주시
문산4-3간이배수펌프장,경기도,파주시,경기도 파주시 문산읍 문향로68번길 43-3,경기도 파주시 문산읍 문산리 17-23,37.8562611924,126.7867332134,,2002.0,침수방지,2024-08-08,4060000,경기도 파주시
사목리간이배수펌프장,경기도,파주시,,경기도 파주시 문산읍 사목리 204-6,37.8692583505,126.7508430604,,2003.0,침수방지,2024-08-08,4060000,경기도 파주시
장례식장간이배수펌프장,경기도,파주시,,경기도 파주시 문산읍 선유리 966-13,37.8594459788,126.7888306909,,2008.0,침수방지,2024-08-08,4060000,경기도 파주시
봉일천4리간이배수펌프장,경기도,파주시,,경기도 파주시 조리읍 봉일천리 80-22,37.7403268821,126.8221653655,,1996.0,침수방지,2024-08-08,4060000,경기도 파주시
능안리간이배수펌프장,경기도,파주시,,경기도 파주시 조리읍 능안리 40-1,37.7419497288,126.7928567326,,2008.0,침수방지,2024-08-08,4060000,경기도 파주시
봉암1리간이배수펌프장,경기도,파주시,,경기도 파주시 파주읍 봉암리 520-23,37.8142478072,126.7959860139,,2001.0,침수방지,2024-08-08,4060000,경기도 파주시
봉서2리간이배수펌프장,경기도,파주시,경기도 파주시 파주읍 문산역로 49-107,경기도 파주시 파주읍 봉서리 1303-12,37.8496195852,126.783534476,,2002.0,침수방지,2024-08-08,4060000,경기도 파주시
봉서3리간이배수펌프장,경기도,파주시,,경기도 파주시 파주읍 봉서리 1165-2,37.8541301469,126.7988945455,,2001.0,침수방지,2024-08-08,4060000,경기도 파주시
백석5간이배수펌프장,경기도,파주시,,경기도 파주시 파주읍 백석리 124-15,37.8014758799,126.8111276419,,2001.0,침수방지,2024-08-08,4060000,경기도 파주시
연풍1간이배수펌프장,경기도,파주시,경기도 파주시 파주읍 연풍4길 76-16,경기도 파주시 파주읍 연풍리 309-34,37.8280730884,126.8367188165,,2001.0,침수방지,2024-08-08,4060000,경기도 파주시
평전배수장,전라남도,영광군,,전라남도 영광군 영광읍 양평리 9-1,35.3175771233,126.5121075486,061-350-5283,2016.0,논경지 침수피해 방지,2024-08-14,4970000,전라남도 영광군
연풍2간이배수펌프장,경기도,파주시,,경기도 파주시 파주읍 연풍리 300-4,37.8277618844,126.8384134016,,2001.0,침수방지,2024-08-08,4060000,경기도 파주시
연풍3간이배수펌프장,경기도,파주시,,경기도 파주시 파주읍 연풍리 299-8,37.8281727218,126.8380529744,,2001.0,침수방지,2024-08-08,4060000,경기도 파주시
연풍4간이배수펌프장,경기도,파주시,경기도 파주시 파주읍 연풍내길 25,경기도 파주시 파주읍 연풍리 287-5,37.8279939543,126.8411772148,,2005.0,침수방지,2024-08-08,4060000,경기도 파주시
연풍5간이배수펌프장,경기도,파주시,,경기도 파주시 파주읍 연풍리 117-10,37.8273209563,126.8412829406,,2012.0,침수방지,2024-08-08,4060000,경기도 파주시
낙하리간이배수펌프장,경기도,파주시,,경기도 파주시 탄현면 낙하리 172-7,37.8435008672,126.7273346165,,2001.0,침수방지,2024-08-08,4060000,경기도 파주시
갈현3간이배수펌프장,경기도,파주시,,경기도 파주시 탄현면 갈현리 1907-1,37.7629371435,126.6993507541,,2000.0,침수방지,2024-08-08,4060000,경기도 파주시
두지리간이배수펌프장,경기도,파주시,,경기도 파주시 적성면 두지리 79-2,37.9655090156,126.8936016148,,2014.0,침수방지,2024-08-08,4060000,경기도 파주시
앞골입구간이배수펌프장,경기도,파주시,경기도 파주시 앞골길 380,경기도 파주시 아동동 251-1,37.768502422,126.7838162051,,2012.0,침수방지,2024-08-08,4060000,경기도 파주시
월성 빗물펌프장,대구광역시,달서구,대구광역시 달서구 달서대로 243-13,,35.81752447,128.5023713,,,재난방지시설,2024-08-07,6270000,대구광역시
이현 빗물펌프장,대구광역시,서구,대구광역시 서구 달서천로2,,35.883904,128.5350342,,,재난방지시설,2024-08-07,6270000,대구광역시
비산 빗물펌프장,대구광역시,서구,대구광역시 서구 염색공단로 11길 55-7,,35.88306135,128.5548772,,,재난방지시설,2024-08-07,6270000,대구광역시
성서5차 빗물펌프장,대구광역시,달성군,,대구광역시 달성군 다사읍 세천리 1503,35.86570296,128.4740461,,,재난방지시설,2024-08-07,6270000,대구광역시
죽곡 빗물펌프장,대구광역시,달성군,대구광역시 달성군 다사읍 대실역남로 116,,35.84915299,128.4685539,,,재난방지시설,2024-08-07,6270000,대구광역시
창리 빗물펌프장,대구광역시,달성군,대구광역시 달성군 구지면 국가산단서로 189,대구광역시 달성군 구지면 창리 1125-6,35.6444537321,128.4050105758,,,재난방지시설,2024-08-07,6270000,대구광역시
팔달 빗물펌프장,대구광역시,북구,대구광역시 북구 사수로 586-106,,35.89044681,128.5316029,,,재난방지시설,2024-08-07,6270000,대구광역시
3공단 빗물펌프장,대구광역시,서구,대구광역시 서구 염색공단천로 112,,35.88798492,128.5400615,,,재난방지시설,2024-08-07,6270000,대구광역시
서재1 빗물펌프장,대구광역시,달성군,대구광역시 달성군 다사읍 서재로33길 29,,35.87670619,128.4932608,,,재난방지시설,2024-08-07,6270000,대구광역시
서재2 빗물펌프장,대구광역시,달성군,대구광역시 달성군 다사읍 서재본길 92-32,,35.87443471,128.4873632,,,재난방지시설,2024-08-07,6270000,대구광역시
노곡 빗물펌프장,대구광역시,북구,대구광역시 북구 노곡로 12,,35.90553256,128.5636627,,,재난방지시설,2024-08-07,6270000,대구광역시
조야 빗물펌프장,대구광역시,북구,대구광역시 북구 조야로2길 7,,35.90786756,128.5782036,,,재난방지시설,2024-08-07,6270000,대구광역시
동촌 빗물펌프장,대구광역시,동구,대구광역시 동구 팔공로 23길 105,,35.90586112,128.6309327,,,재난방지시설,2024-08-07,6270000,대구광역시
봉무 빗물펌프장,대구광역시,동구,대구광역시 동구 위남로 93,,35.9291493,128.6322936,,,재난방지시설,2024-08-07,6270000,대구광역시
침산 빗물펌프장,대구광역시,북구,대구광역시 북구 노원로 57길 31,,35.90272724,128.5891298,,,재난방지시설,2024-08-07,6270000,대구광역시
산격 빗물펌프장,대구광역시,북구,대구광역시 북구 연암로 209,,35.90320138,128.5960755,,,재난방지시설,2024-08-07,6270000,대구광역시
가천 빗물펌프장,대구광역시,수성구,대구광역시 수성구 천을로23길 260,,35.85530953,128.6933035,,,재난방지시설,2024-08-07,6270000,대구광역시
방촌1 빗물펌프장,대구광역시,동구,대구광역시 동구 호반길 33,,35.88120214,128.6582968,,,재난방지시설,2024-08-07,6270000,대구광역시
방촌2 빗물펌프장,대구광역시,동구,대구광역시 동구 화랑로 454,,35.87528636,128.6736932,,,재난방지시설,2024-08-07,6270000,대구광역시
신암 빗물펌프장,대구광역시,동구,대구광역시 동구 아양로41길 26,,35.8888365,128.6371314,,,재난방지시설,2024-08-07,6270000,대구광역시
팔현 빗물펌프장,대구광역시,수성구,대구광역시 수성구 팔현길 88-86,,35.87124742,128.671602,,,재난방지시설,2024-08-07,6270000,대구광역시
율하 빗물펌프장,대구광역시,동구,대구광역시 동구 금호강변로 278,,35.85992537,128.6928379,,,재난방지시설,2024-08-07,6270000,대구광역시
덕천,부산광역시,북구,부산광역시 북구 낙동대로1739번길 16,,35.2104541,129.001677,051-309-4676,1990.0,침수예방,2024-08-06,3320000,부산광역시 북구
구포,부산광역시,북구,부산광역시 북구 낙동대로1769,,35.2100811449,129.003188,051-309-4675,2002.0,침수예방,2024-08-06,3320000,부산광역시 북구
구남,부산광역시,북구,부산광역시 북구 구포만세길 10,,35.2013304524,128.9967142314,051-309-4677,2003.0,침수예방,2024-08-06,3320000,부산광역시 북구
대천천1,부산광역시,북구,,부산광역시 북구 화명동 2166,35.2403562996,129.0170771462,,2022.0,침수예방,2024-08-06,3320000,부산광역시 북구
대천천2,부산광역시,북구,,부산광역시 북구 화명동 377-6,35.2408033863,129.0175125285,,2022.0,침수예방,2024-08-06,3320000,부산광역시 북구
완산 배수펌프장,경상북도,영천시,,경상북도 영천시 완산동 1269-48,35.9648087,128.9358056,054-339-7598,2003.0,침수방지,2024-08-05,5100000,경상북도 영천시
미동배수장,전라남도,영광군,,전라남도 영광군 염산면 옥실리 1761-15,35.1883827682,126.3701870659,061-350-5283,2016.0,논경지 침수피해 방지,2024-08-14,4970000,전라남도 영광군
제1일반산업단지 망제지구 제1 배수펌프장,전북특별자치도,정읍시,,전북특별자치도 정읍시 영파동 498-2,35.6083841,126.8464783,063-539-5675,2013.0,재난대응용,2024-08-01,4691000,전북특별자치도 정읍시
제1일반산업단지 망제지구 제2 배수펌프장,전북특별자치도,정읍시,,전북특별자치도 정읍시 망제동 41-6,35.6064629687,126.8437762703,063-539-5675,2013.0,재난대응용,2024-08-01,4691000,전북특별자치도 정읍시
의정부1동 배수펌프장,경기도,의정부시,경기도 의정부시 태평로166번길 21-14,경기도 의정부시 가능동 13-47,37.74848574,127.05044332,,1989.0,내수배제,2024-08-02,3820000,경기도 의정부시
의정부3동 배수펌프장,경기도,의정부시,경기도 의정부시 경의로158번길 125,경기도 의정부시 의정부동 64-7,37.72796819,127.05138067,,1989.0,내수배제,2024-08-02,3820000,경기도 의정부시
신곡1동 배수펌프장,경기도,의정부시,경기도 의정부시 장곡로 346,경기도 의정부시 신곡동 615-84,37.7343187,127.05493305,,1993.0,내수배제,2024-08-02,3820000,경기도 의정부시
장암동 배수펌프장,경기도,의정부시,경기도 의정부시 동일로 33-107,경기도 의정부시 장암동 392-4,37.69119559,127.05112002,,2000.0,내수배제,2024-08-02,3820000,경기도 의정부시
호원동 간이배수펌프장,경기도,의정부시,경기도 의정부시 안말로101번길 11,경기도 의정부시 호원동 446-44,37.71496835,127.04987733,,2001.0,내수배제,2024-08-02,3820000,경기도 의정부시
신흥마을 배수펌프장,경기도,의정부시,,경기도 의정부시 의정부동 89-5,37.7303463,127.04701259,,2008.0,내수배제,2024-08-02,3820000,경기도 의정부시
오목마을 배수펌프장,경기도,의정부시,경기도 의정부시 용민로 105,경기도 의정부시 민락동 736-2,37.73975019,127.08926713,,2001.0,내수배제,2024-08-02,3820000,경기도 의정부시
인천교매립지빗물펌프장,인천광역시,동구,인천광역시 동구 중봉대로 113-134,,37.493035,126.6433548,032-770-6886,1990.0,침수방지,2024-08-01,3500000,인천광역시 동구
양평1 빗물펌프장,서울특별시,영등포구,서울특별시 영등포구 선유로 35길22,서울특별시 영등포구 양평동 3가 57,37.5287533941,126.8909800646,2670-4056,1988.0,풍수해대비,2024-08-01,3180000,서울특별시 영등포구
양평2 빗물펌프장,서울특별시,영등포구,서울특별시 영등포구 양평로171,서울특별시 영등포구 양평동 35-2,37.525541227,126.8840668422,2670-4057,1990.0,풍수해대비,2024-08-01,3180000,서울특별시 영등포구
문래 빗물펌프장,서울특별시,영등포구,서울특별시 영등포구 도림천로 62,서울특별시 영등포구 문래동5가 35,37.5153206573,126.8832865674,2670-4055,1989.0,풍수해대비,2024-08-01,3180000,서울특별시 영등포구
영등포 빗물펌프장,서울특별시,영등포구,서울특별시 영등포구 경인로 114길 19,서울특별시 영등포구 영등포동2가 5-2,37.51811643,126.9155046,2670-4060,1990.0,풍수해대비,2024-08-01,3180000,서울특별시 영등포구
도림2 빗물펌프장,서울특별시,영등포구,서울특별시 영등포구 대방천로 29-18,서울특별시 영등포구 도림동 254,37.5062038596,126.897577918,2670-4059,1982.0,풍수해대비,2024-08-01,3180000,서울특별시 영등포구
신길 빗물펌프장,서울특별시,영등포구,서울특별시 영등포구 영등포로343-10,서울특별시 영등포구 신길동 53,37.5163787186,126.9181374679,2670-4054,1989.0,풍수해대비,2024-08-01,3180000,서울특별시 영등포구
대림2 빗물펌프장,서울특별시,영등포구,서울특별시 영등포구 도림천로 21길 1,서울특별시 영등포구 대림동 995-1,37.4858546361,126.90172105,2670-4061,1992.0,풍수해대비,2024-08-01,3180000,서울특별시 영등포구
대림3 빗물펌프장,서울특별시,영등포구,서울특별시 영등포구 도신로 1,서울특별시 영등포구 대림동 611,37.5042932011,126.8944197199,2670-4058,1980.0,풍수해대비,2024-08-01,3180000,서울특별시 영등포구
동천변 침수지 배수시설 1,부산광역시,부산진구,부산광역시 부산진구 범일로154번길 61,부산광역시 부산진구 범천동 842-4,35.14389285,129.0627044,051-605-4671,2011.0,침수지배수,2024-08-01,3290000,부산광역시 부산진구
동천변 침수지 배수시설 2,부산광역시,부산진구,부산광역시 부산진구 중앙번영로 32,부산광역시 부산진구 범천동 842-8,35.14439905,129.0626394,051-605-4671,2010.0,침수지배수,2024-08-01,3290000,부산광역시 부산진구
학익빗물펌프장,인천광역시,미추홀구,인천광역시 미추홀구 아암대로 338,인천광역시 미추홀구 학익동 729,37.43159865,126.6329007,032-880-7478,2004.0,재난대응+침수방지,2024-07-26,3510500,인천광역시 미추홀구
용현빗물펌프장,인천광역시,미추홀구,인천광역시 미추홀구 아암대로 43,인천광역시 미추홀구 용현동 574-21,37.45731282,126.6363901,032-880-4772,1988.0,재난대응+침수방지,2024-07-26,3510500,인천광역시 미추홀구
백운빗물펌프장,인천광역시,미추홀구,인천광역시 미추홀구 아암대로 135,인천광역시 미추홀구 용현동 627-76,37.4502692,126.631507,032-880-4771,2001.0,재난대응+침수방지,2024-07-26,3510500,인천광역시 미추홀구
구미배수펌프장,경기도,연천군,경기도 연천군 백학면 노아로 504-46,경기도 연천군 백학면 구미리 10-2,38.0023279351,126.9641248859,031-839-2453,2009.0,침수피해 예방,2024-07-30,4140000,경기도 연천군
군남배수펌프장,경기도,연천군,경기도 연천군 군남면 진상17길 91-81,경기도 연천군 군남면 진상리 679,38.0617775467,127.0168382111,031-839-2453,2001.0,침수피해 예방,2024-07-30,4140000,경기도 연천군
노곡배수펌프장,경기도,연천군,,경기도 연천군 백학면 노곡리 981,38.001856301,126.9021792565,031-839-2453,2009.0,침수피해 예방,2024-07-30,4140000,경기도 연천군
두일배수펌프장,경기도,연천군,경기도 연천군 백학면 장백로 874,경기도 연천군 백학면 두일리 684-1,38.0141243568,126.9095133658,031-839-2453,2011.0,침수피해 예방,2024-07-30,4140000,경기도 연천군
무등배수펌프장,경기도,연천군,경기도 연천군 왕징면 왕산로78번길 34-20,경기도 연천군 왕징면 무등리 1-3,38.059931925,127.0124762804,031-839-2453,2007.0,침수피해 예방,2024-07-30,4140000,경기도 연천군
백의배수펌프장,경기도,연천군,경기도 연천군 청산면 청창로 727,경기도 연천군 청산면 백의리 822-21,38.0238281252,127.1367512027,031-839-2453,2012.0,침수피해 예방,2024-07-30,4140000,경기도 연천군
연천배수펌프장,경기도,연천군,경기도 연천군 연천읍 연천로 146,경기도 연천군 연천읍 차탄리 193-7,38.0893209784,127.072766484,031-839-2453,2013.0,침수피해 예방,2024-07-30,4140000,경기도 연천군
장남배수펌프장,경기도,연천군,경기도 연천군 장남면 장남로163번길 68,경기도 연천군 장남면 고랑포리 12-4,37.9873173959,126.8600397841,031-839-2453,2001.0,침수피해 예방,2024-07-30,4140000,경기도 연천군
대부 배수장,경상남도,합천군,,경상남도 합천군 청덕면 대부리 1293-4,35.54172514,128.3484864,,2001.0,침수방지,2024-07-25,5480000,경상남도 합천군
초성배수펌프장,경기도,연천군,경기도 연천군 청산면 청창로 52,경기도 연천군 청산면 초성리 291-9,38.0048899751,127.0724892859,031-839-2453,2011.0,침수피해 예방,2024-07-30,4140000,경기도 연천군
거제배수펌프장,부산광역시,연제구,부산광역시 연제구 반송로 107,부산광역시 연제구 거제동 630,35.1928257,129.0899754799,051-665-5041,2017.0,내수배제,2024-07-29,3370000,부산광역시 연제구
신금로배수펌프장,부산광역시,연제구,부산광역시 연제구 온천천남로 39,부산광역시 연제구 연산동 503-1,35.1924816,129.0951416,051-665-5042,2022.0,내수배제,2024-07-29,3370000,부산광역시 연제구
연산4동배수펌프장,부산광역시,연제구,부산광역시 연제구 중앙대로 1164,부산광역세 연제구 연산동 578-1,35.1913830979,129.0812578364,051-665-5041,2010.0,내수배제,2024-07-29,3370000,부산광역시 연제구
연산9동배수펌프장,부산광역시,연제구,부산광역시 연제구 온천천남로 110,부산광역시 연제구 연산동 388-1,35.19075907,129.1006281,051-665-5042,2011.0,내수배제,2024-07-29,3370000,부산광역시 연제구
정보화지하차도배수펌프장,부산광역시,연제구,부산광역시 연제구 연산동 2180,부산광역시 연제구 연산동 2180,35.1831799554,129.1148835075,051-665-5042,2007.0,내수배제,2024-07-29,3370000,부산광역시 연제구
삼봉배수펌프장,충청남도,홍성군,,충청남도 홍성군 광천읍 광천리 378-3,36.4984790253,126.6261406787,,2007.0,배수펌프장은 우기시 가동되어 국민의 생명과 재산을 보호하는 중요한 방재시설물,2024-07-25,4600000,충청남도 홍성군
상촌배수펌프장,충청남도,홍성군,,충청남도 홍성군 갈산면 상촌리 174-58,36.6024967209,126.551229922,,2009.0,배수펌프장은 우기시 가동되어 국민의 생명과 재산을 보호하는 중요한 방재시설물,2024-07-25,4600000,충청남도 홍성군
옥계배수펌프장,충청남도,홍성군,,충청남도 홍성군 장곡면 옥계리 28-15,36.4879204689,126.7436726905,,2017.0,배수펌프장은 우기시 가동되어 국민의 생명과 재산을 보호하는 중요한 방재시설물,2024-07-25,4600000,충청남도 홍성군
덕천빗물배수펌프장,경기도,안양시,경기도 안양시 만안구 안양천서로 190,경기도 안양시 만안구 안양동 250번지,37.3889322516,126.941005319,,2000.0,침수예방,2024-07-01,3830000,경기도 안양시
덕천빗물배수펌프장(전기동),경기도,안양시,경기도 안양시 만안구 안양천서로 190,경기도 안양시 만안구 안양동 250번지,37.3889322516,126.941005319,,2022.0,침수예방,2024-07-01,3830000,경기도 안양시
연현빗물배수펌프장,경기도,안양시,"경기도 안양시 만안구 연현로 128,(석수동)",경기도 안양시 만안구 석수동 358-2번지,37.435656,126.9017481624,,2000.0,침수예방,2024-07-01,3830000,경기도 안양시
박달빗물배수펌프장,경기도,안양시,경기도 안양시 만안구 양화로135번길 88,경기도 안양시 만안구 박달동 838-7번지,37.405076,126.9046522823,,2003.0,침수예방,2024-07-01,3830000,경기도 안양시
석수빗물배수펌프시설,경기도,안양시,,경기도 안양시 만안구 석수동 438-2,37.4304979251,126.898947,,2018.0,침수예방,2024-07-01,3830000,경기도 안양시
비산빗물펌프장,경기도,안양시,,경기도 안양시 동안구 비산동1116번지,37.396132,126.9405601,,2000.0,도시침수방지용,2024-07-01,3830000,경기도 안양시
가평배수펌프장,경기도,가평군,경기도 가평군 가평읍 가평제방길 97,경기도 가평군 가평읍 대곡리 11,37.8240774817,127.517831,,1995.0,도시침수방지,2024-07-25,4160000,경기도 가평군
청평배수펌프장,경기도,가평군,경기도 가평군 청평면 강변로 17,경기도 가평군 청평면 청평리 619-39,37.7347729479,127.414468977,,1997.0,도시침수방지,2024-07-25,4160000,경기도 가평군
도청교 지하차도 배수펌프장,대구광역시,북구,,대구광역시 북구 침산동 22-109,35.8877346444,128.5991758626,,,지하차도 침수방지,2024-07-25,3450000,대구광역시 북구
성북교 지하차도 배수펌프장,대구광역시,북구,,대구광역시 북구 침산동 1662-20,35.8911077086,128.5946132917,,,지하차도 침수방지,2024-07-25,3450000,대구광역시 북구
침산교 지하차도 배수펌프장,대구광역시,북구,,대구광역시 북구 침산동 663-8,35.8992083263,128.5930070097,,,지하차도 침수방지,2024-07-25,3450000,대구광역시 북구
대구역 지하차도 배수펌프장,대구광역시,북구,,대구광역시 북구 칠성동2가 302-329,35.876195301,128.6002329602,,,지하차도 침수방지,2024-07-25,3450000,대구광역시 북구
원대 지하차도 배수펌프장,대구광역시,북구,,대구광역시 중구 고성동2가 127-1,35.879248,128.580595,,,지하차도 침수방지,2024-07-25,3450000,대구광역시 북구
칠성 지하차도 배수펌프장,대구광역시,북구,,대구광역시 북구 칠성동2가 302-99,35.8750799232,128.600999635,,,지하차도 침수방지,2024-07-25,3450000,대구광역시 북구
매천 지하차도 배수펌프장,대구광역시,북구,,대구광역시 북구 매천동 370,35.9039285779,128.5445190685,,,지하차도 침수방지,2024-07-25,3450000,대구광역시 북구
칠곡 지하차도 배수펌프장,대구광역시,북구,,대구광역시 북구 태전동 940,35.9325261941,128.547992,,,지하차도 침수방지,2024-07-25,3450000,대구광역시 북구
무태 지하차도 배수펌프장,대구광역시,북구,,대구광역시 북구 서변동 1282-6,35.9139559611,128.6001705199,,,지하차도 침수방지,2024-07-25,3450000,대구광역시 북구
고촌 지하차도 배수펌프장,대구광역시,북구,,대구광역시 북구 서변동 1254-1,35.9152101174,128.5977955249,,,지하차도 침수방지,2024-07-25,3450000,대구광역시 북구
서변 지하차도 배수펌프장,대구광역시,북구,,대구광역시 북구 서변동 1801,35.9215195129,128.5994927811,,,지하차도 침수방지,2024-07-25,3450000,대구광역시 북구
태평 지하차도 배수펌프장,대구광역시,북구,,대구광역시 북구 고성동1가1,35.8777557471,128.5887791768,,,지하차도 침수방지,2024-07-25,3450000,대구광역시 북구
문림 배수장,경상남도,합천군,,경상남도 합천군 율곡면 문림리 380-1,35.56801089,128.1968142,,1989.0,침수방지,2024-07-25,5480000,경상남도 합천군
두사 배수장,경상남도,합천군,,경상남도 합천군 율곡면 두사리 25-3,35.59969954,128.2276504,,2023.0,침수방지,2024-07-25,5480000,경상남도 합천군
북동 배수장,경상남도,합천군,경상남도 합천군 덕곡면 율지포두길 300-11,,35.64147616,128.3522335,,2004.0,침수방지,2024-07-25,5480000,경상남도 합천군
적포 배수장,경상남도,합천군,경상남도 합천군 청덕면 동부로 2117-10,,35.55849348,128.3492862,,2001.0,침수방지,2024-07-25,5480000,경상남도 합천군
양평배수장,전라남도,영광군,,전라남도 영광군 영광읍 양평리 60,35.3130783882,126.512966,061-350-5283,2016.0,논경지 침수피해 방지,2024-08-14,4970000,전라남도 영광군
외삼학 배수장,경상남도,합천군,,경상남도 합천군 청덕면 삼학리 48-6,35.5784885,128.3558963,,2007.0,침수방지,2024-07-25,5480000,경상남도 합천군
덕연 배수장,경상남도,합천군,,경상남도 합천군 청덕면 미곡리 314,35.57528868,128.3383559,,2007.0,침수방지,2024-07-25,5480000,경상남도 합천군
광암 배수장,경상남도,합천군,경상남도 합천군 청덕면 앙진길 288-38,,35.51359115,128.368194,,2001.0,침수방지,2024-07-25,5480000,경상남도 합천군
대목 간이배수장,경상남도,합천군,,경상남도 합천군 대양면 대목리 433-3,35.52398249,128.1684657,,2004.0,침수방지,2024-07-25,5480000,경상남도 합천군
외촌 간이배수장,경상남도,합천군,,경상남도 합천군 쌍책면 성산리 272,35.57862413,128.2876506,,2010.0,침수방지,2024-07-25,5480000,경상남도 합천군
덕곡 상시배수장,경상남도,합천군,,경상남도 합천군 덕곡면 율지리 314-3,35.61661458,128.3488211,,2012.0,침수방지,2024-07-25,5480000,경상남도 합천군
병배 배수장,경상남도,합천군,,경상남도 합천군 덕곡면 병배리 71,35.61871662,128.3456406,,2014.0,침수방지,2024-07-25,5480000,경상남도 합천군
외토 배수장,경상남도,합천군,,경상남도 합천군 삼가면 외토리 1218-1,35.36911686,128.0894677,,2014.0,침수방지,2024-07-25,5480000,경상남도 합천군
외토2 배수장,경상남도,합천군,,경상남도 합천군 삼가면 외토리 1351-5,35.37069685,128.0815154,,2022.0,침수방지,2024-07-25,5480000,경상남도 합천군
토동 배수장,경상남도,합천군,,경상남도 합천군 삼가면 외토리 580,35.38732414,128.1019047,,2021.0,침수방지,2024-07-25,5480000,경상남도 합천군
용계 간이배수장,경상남도,합천군,,경상남도 합천군 삼가면 학리 1343,35.38721105,128.093003,,2016.0,침수방지,2024-07-25,5480000,경상남도 합천군
세안골뜰간이배수장,경상남도,합천군,,경상남도 합천군 대병면 성리 1373-3,35.51681005,128.0525753,,2020.0,침수방지,2024-07-25,5480000,경상남도 합천군
해곡배수장,경상남도,합천군,경상남도 합천군 용주면 해곡길 52,,35.53424658,128.1221576,,2021.0,침수방지,2024-07-25,5480000,경상남도 합천군
노리배수장,경상남도,합천군,경상남도 합천군 용주면 노리팔산길 52-31,,35.52363775,128.1189342,,2021.0,침수방지,2024-07-25,5480000,경상남도 합천군
장호배수장,전라남도,영광군,,전라남도 영광군 군서면 만금리 658-1,35.254719,126.462887,061-350-5283,1996.0,논경지 침수피해 방지,2024-08-14,4970000,전라남도 영광군
구수배수장,전라남도,영광군,,전라남도 영광군 백수읍 구수리 852-6,35.3429504125,126.4371843839,061-350-5283,1997.0,논경지 침수피해 방지,2024-08-14,4970000,전라남도 영광군
창포배수장,전라남도,영광군,,전라남도 영광군 영광읍 송림리 1093-1,35.3069217921,126.4692438365,061-350-5283,1997.0,논경지 침수피해 방지,2024-08-14,4970000,전라남도 영광군
장산배수장,전라남도,영광군,,전라남도 영광군 백수읍 장산리 910-10,35.3103678098,126.4701279681,061-350-5283,1999.0,논경지 침수피해 방지,2024-08-14,4970000,전라남도 영광군
칠성동배수장,전라남도,영광군,,전라남도 영광군 영광읍 덕호리 1307,35.3133983296,126.469836845,061-350-5283,1999.0,논경지 침수피해 방지,2024-08-14,4970000,전라남도 영광군
월계배수장,전라남도,영광군,,전라남도 영광군 법성면 월산리 558-1,35.3319408651,126.503131,061-350-5283,2000.0,논경지 침수피해 방지,2024-08-14,4970000,전라남도 영광군
구평배수장,전라남도,영광군,,전라남도 영광군 영광읍 와룡리 1170-1,35.3356134164,126.5102646428,061-350-5283,2000.0,논경지 침수피해 방지,2024-08-14,4970000,전라남도 영광군
신월배수장,전라남도,영광군,,전라남도 영광군 영광읍 양평리 535-4,35.3177231211,126.5033806979,061-350-5283,2001.0,논경지 침수피해 방지,2024-08-14,4970000,전라남도 영광군
와전배수장,전라남도,영광군,,전라남도 영광군 영광읍 와룡리 1031-3,35.324528346,126.496732,061-350-5283,2001.0,논경지 침수피해 방지,2024-08-14,4970000,전라남도 영광군
와룡1배수장,전라남도,영광군,,전라남도 영광군 영광읍 와룡리 1094-12,35.3263179048,126.4984933124,061-350-5283,2001.0,논경지 침수피해 방지,2024-08-14,4970000,전라남도 영광군
진량배수장,전라남도,영광군,,전라남도 영광군 법성면 신장리 895-10,35.3298905132,126.4776018976,061-350-5283,2001.0,논경지 침수피해 방지,2024-08-14,4970000,전라남도 영광군
부귀동배수장,전라남도,영광군,,전라남도 영광군 법성면 신장리 924-10,35.3292280964,126.4856053583,061-350-5283,2001.0,논경지 침수피해 방지,2024-08-14,4970000,전라남도 영광군
와룡2배수장,전라남도,영광군,,전라남도 영광군 영광읍 와룡리 1078-1,35.3315257805,126.5047726298,061-350-5283,2002.0,논경지 침수피해 방지,2024-08-14,4970000,전라남도 영광군
상둔배수장,전라남도,영광군,,전라남도 영광군 백수읍 장산리 649-1,35.3233563001,126.4555300987,061-350-5283,2002.0,논경지 침수피해 방지,2024-08-14,4970000,전라남도 영광군
월계2배수장,전라남도,영광군,,전라남도 영광군 법성면 월산리 866,35.3350113173,126.5062663755,061-350-5283,2002.0,논경지 침수피해 방지,2024-08-14,4970000,전라남도 영광군
지안일배수장,전라남도,영광군,전라남도 영광군 법성면 신장길 57,전라남도 영광군 법성면 덕흥리 285-11,35.328439,126.4743522,061-350-5283,2000.0,논경지 침수피해 방지,2024-08-14,4970000,전라남도 영광군
장산1배수장,전라남도,영광군,,전라남도 영광군 백수읍 장산리 891-8,35.3173948098,126.460376305,061-350-5283,2006.0,논경지 침수피해 방지,2024-08-14,4970000,전라남도 영광군
야월배수장,전라남도,영광군,,전라남도 영광군 염산면 야월리 272-50,35.236239,126.3235307558,061-350-5283,2019.0,논경지 침수피해 방지,2024-08-14,4970000,전라남도 영광군
입암배수장,전라남도,영광군,,전라남도 영광군 법성면 입암리 16-5,35.3272929823,126.4577516788,061-350-5283,2001.0,논경지 침수피해 방지,2024-08-14,4970000,전라남도 영광군
장산2배수장,전라남도,영광군,,전라남도 영광군 영광읍 덕호리 1286-1,35.321581735,126.4587002203,061-350-5283,2006.0,논경지 침수피해 방지,2024-08-14,4970000,전라남도 영광군
두우배수장,전라남도,영광군,전라남도 영광군 염산면 칠산로9길 28,전라남도 영광군 염산면 두우리 888-97,35.2301612586,126.3005715983,061-350-5283,2015.0,논경지 침수피해 방지,2024-08-14,4970000,전라남도 영광군
덕흥배수장,전라남도,영광군,,전라남도 영광군 법성면 덕흥리 626-16,35.327711,126.4734055394,061-350-5283,2021.0,논경지 침수피해 방지,2024-08-14,4970000,전라남도 영광군
진량2배수장,전라남도,영광군,,전라남도 영광군 법성면 신장리 956-1,35.3291546768,126.477231,061-350-5283,2023.0,논경지 침수피해 방지,2024-08-14,4970000,전라남도 영광군
월계3배수장,전라남도,영광군,,전라남도 영광군 법성면 신장리 10,35.331927,126.5002928194,061-350-5283,2024.0,논경지 침수피해 방지,2024-08-14,4970000,전라남도 영광군
정관평배수장,전라남도,영광군,,전라남도 영광군 백수읍 길용리 2-36,35.329952522,126.444429766,061-350-5283,2024.0,논경지 침수피해 방지,2024-08-14,4970000,전라남도 영광군
동천1 배수펌프장,부산광역시,남구,부산광역시 남구 전포대로 91번길47,부산광역시 남구 문현동 751,35.144303,129.064241,051-607-4676,2001.0,침수예방,2024-08-13,3310000,부산광역시 남구
동천2 배수펌프장,부산광역시,남구,부산광역시 남구 남동천로 8-2,부산광역시 남구 문현동 810-2,35.137728,129.066667,051-607-4676,2009.0,침수예방,2024-08-13,3310000,부산광역시 남구
동천3 배수펌프장,부산광역시,남구,,부산광역시 남구 문현동 967-4,35.1337080707,129.0669927875,051-607-4676,2021.0,침수예방,2024-08-13,3310000,부산광역시 남구
송선마을 배수펌프장,부산광역시,남구,부산광역시 남구 신선로 514,부산광역시 남구 대연동 627-41,35.129162,129.105155,051-607-4676,2012.0,침수예방,2024-08-13,3310000,부산광역시 남구
용호 배수펌프장,부산광역시,남구,부산광역시 남구 이기대공원로 7,부산광역시 남구 용호동 36-7,35.124561,129.113486,051-607-4676,2012.0,침수예방,2024-08-13,3310000,부산광역시 남구
삼성시장 배수펌프장,부산광역시,남구,,부산광역시 남구 용호동 265-1,35.1235699044,129.1103525955,051-607-4676,2015.0,침수예방,2024-08-13,3310000,부산광역시 남구
용호중학교우수저류지,부산광역시,남구,부산광역시 남구 동명로 185-17,부산광역시 남구 용호동 512,35.11934251,129.1169769,051-607-4676,2014.0,침수예방,2024-08-13,3310000,부산광역시 남구
백세교 우수저류지,부산광역시,남구,,부산광역시 남구 용호동 869,35.113884,129.1163928844,051-607-4676,2016.0,침수예방,2024-08-13,3310000,부산광역시 남구
대남지하차도 배수펌프장,부산광역시,남구,부산광역시 남구 수영로 366번길,,35.138526,129.106292,051-607-4676,1996.0,침수예방,2024-08-13,3310000,부산광역시 남구
문현지하차도 배수펌프장,부산광역시,남구,,부산광역시 남구 문현동 682,35.1414515794,129.0671298329,051-607-4676,1980.0,침수예방,2024-08-13,3310000,부산광역시 남구
구암배수펌프장,전북특별자치도,군산시,전북특별자치도 군산시 외산4길 10,전북특별자치도 군산시 구암동 601-119,35.9871991198,126.741201,063-454-3875,2013.0,우수배제,2024-08-13,4671000,전북특별자치도 군산시
중동2배수펌프장,전북특별자치도,군산시,전북특별자치도 군산시 해망로 132-12,전북특별자치도 군산시 금암동 292-41,35.987401,126.7228840308,063-454-3875,2015.0,우수배제,2024-08-13,4671000,전북특별자치도 군산시
경포배수펌프장,전북특별자치도,군산시,전북특별자치도 군산시 경포천서길 61,전북특별자치도 군산시 경암동 609-117,35.9790833676,126.725801,063-454-3875,1999.0,우수배제,2024-08-13,4671000,전북특별자치도 군산시
내항배수펌프장,전북특별자치도,군산시,전북특별자치도 군산시 내항2길 45,전북특별자치도 군산시 장미동 1-72,35.991033943,126.7133696291,063-454-3875,2017.0,우수배제,2024-08-13,4671000,전북특별자치도 군산시
소룡배수펌프장,전북특별자치도,군산시,전북특별자치도 군산시 해망로 546-8,전북특별자치도 군산시 소룡동 1524-29,35.9831273348,126.6833955471,063-454-3875,2018.0,우수배제,2024-08-13,4671000,전북특별자치도 군산시
중동1배수펌프장,전북특별자치도,군산시,,전북특별자치도 군산시 금암동 273-17,35.984579712,126.7273048706,063-454-3875,2018.0,우수배제,2024-08-13,4671000,전북특별자치도 군산시
미장1배수펌프장,전북특별자치도,군산시,전북특별자치도 군산시 경포천로 88,전북특별자치도 군산시 미장동 484-2,35.9670874883,126.7238789826,063-454-3875,2016.0,우수배제,2024-08-13,4671000,전북특별자치도 군산시
미장2배수펌프장,전북특별자치도,군산시,전북특별자치도 군산시 공단대로 146,전북특별자치도 군산시 미장동 542-2,35.959901,126.7255734175,063-454-3875,2016.0,우수배제,2024-08-13,4671000,전북특별자치도 군산시
갈산배수펌프장,경기도,이천시,경기도 이천시 황무로 1081-200 (갈산동),경기도 이천시 갈산동 7-7,37.2920568571,127.4749162818,,2004.0,농경침수방지용,2024-08-05,4070000,경기도 이천시
구시배수펌프장,경기도,이천시,경기도 이천시 대월면 대장로 616-7 (구시리),경기도 이천시 대월면 구시리 26-2,37.2159360247,127.5134268782,,2012.0,농경침수방지용,2024-08-05,4070000,경기도 이천시
노탑배수펌프장,경기도,이천시,경기도 이천시 장호원읍 장여로37번길 4 (노탑리),경기도 이천시 장호원읍 노탑리 834,37.1210282843,127.6309374466,,1998.0,도시침수방지용,2024-08-05,4070000,경기도 이천시
오남배수펌프장,경기도,이천시,경기도 이천시 장호원읍 장터로 80 (장호원리),경기도 이천시 장호원읍 장호원리 80-5,37.1155161458,127.6338203161,,1996.0,도시침수방지용,2024-08-05,4070000,경기도 이천시
제요배수펌프장,경기도,이천시,경기도 이천시 설성면 진상미로 117-300 (제요리),경기도 이천시 설성면 제요리 640-4,37.1013650944,127.5567413382,,2001.0,농경침수방지용,2024-08-05,4070000,경기도 이천시
주미배수펌프장,경기도,이천시,경기도 이천시 호법면 이섭대천로572번길 180-39 (주미리),경기도 이천시 호법면 주미리 100-4,37.2289713042,127.4410107886,,2005.0,농경침수방지용,2024-08-05,4070000,경기도 이천시
단월배수펌프장,경기도,이천시,경기도 이천시 진상미로 2083-372(단월동),경기도 이천시 단월동 224,37.2326969491,127.4456975556,,2019.0,농경침수방지용,2024-08-05,4070000,경기도 이천시
포평배수장,충청남도,금산군,,충청남도 금산군 제원면 저곡리 378-2,36.1165534186,127.5601557959,,2023.0,저곡리 농경지 침수예방을 위한 배수펌프장,2024-08-13,4550000,충청남도 금산군
전민동 청버들 배수펌프장,대전광역시,유성구,,대전광역시 유성구 전민동 108-2,36.4090346629,127.413945,042-611-2329,2017.0,침수방지,2024-08-13,3670000,대전광역시 유성구
신림빗물펌프장,서울특별시,관악구,서울특별시 관악구 신사로 46,,37.4847706,126.9082702652,,,침수방지,2024-08-08,3200000,서울특별시 관악구
신림2빗물펌프장,서울특별시,관악구,서울특별시 관악구 신사로 139,,37.48936355,126.9173004735,,,침수방지,2024-08-08,3200000,서울특별시 관악구
신림5빗물펌프장,서울특별시,관악구,서울특별시 관악구 관천로 126,,37.4894970511,126.9196830177,,,침수방지,2024-08-08,3200000,서울특별시 관악구
내동빗물펌프장,경기도,부천시,,경기도 부천시 오정구 내동 378-1,37.52378228,126.7774535,,2005.0,침수방지,2024-08-01,3860000,경기도 부천시
베르네천 우수저류시설,경기도,부천시,경기도 부천시 오정구 성오로 1,경기도 부천시 오정구 여월동 321,37.51430878,126.8045264,,2015.0,침수방지,2024-08-01,3860000,경기도 부천시
삼정빗물펌프장,경기도,부천시,,경기도 부천시 오정구 삼정동 88-27,37.52325349,126.7693057,,2007.0,침수방지,2024-08-01,3860000,경기도 부천시
소사우수조정지,경기도,부천시,경기도 부천시 소사구 소삼로36번길 16,경기도 부천시 소사구 소사본동 138-4,37.47765816,126.7967783,,2002.0,침수방지,2024-08-01,3860000,경기도 부천시
오정빗물펌프장,경기도,부천시,,경기도 부천시 오정구 오정동 782,37.52902295,126.7964999961,,2016.0,침수방지,2024-08-01,3860000,경기도 부천시
영주지구 우수펌프장,경상북도,영주시,,경상북도 영주시 영주동 470-319,36.81968285,128.6210102,,,호우로 인한 빗물 배수 목적,2024-08-09,5090000,경상북도 영주시
하망지구 우수펌프장,경상북도,영주시,,경상북도 영주시 하망동 324-2,36.82548976,128.6264816,,,호우로 인한 빗물 배수 목적,2024-08-09,5090000,경상북도 영주시
대봉교 지하차도 배수펌프장,대구광역시,남구,,대구광역시 남구 이천동 121-374,35.8537046628,128.6071361,053-664-2882,1993.0,침수방지,2024-08-09,3440000,대구광역시 남구
희망교 지하차도 배수펌프장,대구광역시,남구,,대구광역시 남구 이천동 655-144,35.8499131234,128.6074215674,053-664-2882,1993.0,침수방지,2024-08-09,3440000,대구광역시 남구
중동교 지하차도 배수펌프장,대구광역시,남구,,대구광역시 남구 봉덕동 883-27,35.84079716,128.6061321282,053-664-2882,1993.0,침수방지,2024-08-09,3440000,대구광역시 남구
하신,부산광역시,강서구,부산광역시 강서구 명지오션시티13로 5,부산광역시 강서구 명지동 3300-1,35.08970006,128.8968234,,,침수방지,2024-08-09,3360000,부산광역시 강서구
명지,부산광역시,강서구,부산광역시 강서구 명지오션시티1로 328,부산광역시 강서구 명지동 3308-2,35.0876432,128.9127939,,,침수방지,2024-08-09,3360000,부산광역시 강서구
방근,부산광역시,강서구,부산광역시 강서구 녹산산업북로221번길 17,부산광역시 강서구 송정동 1692,35.0995121,128.8486163,,,침수방지,2024-08-09,3360000,부산광역시 강서구
송정,부산광역시,강서구,부산광역시 강서구 가락대로 227,부산광역시 강서구 송정동 1437-45,35.10449592,128.839761,,,침수방지,2024-08-09,3360000,부산광역시 강서구
신포,부산광역시,강서구,부산광역시 강서구 영강길 20,부산광역시 강서구 명지동 1451-2,35.1076801,128.929457,,,침수방지,2024-08-09,3360000,부산광역시 강서구
대저,부산광역시,강서구,부산광역시 강서구 경전철로 109,부산광역시 강서구 대저2동 1368,35.1891507,128.9592742,,,침수방지,2024-08-09,3360000,부산광역시 강서구
맥도,부산광역시,강서구,부산광역시 강서구 공항로533번길 1,부산광역시 강서구 대저2동 3250,35.1545308,128.9543561,,,침수방지,2024-08-09,3360000,부산광역시 강서구
녹산,부산광역시,강서구,부산광역시 강서구 낙동남로 791,부산광역시 강서구 녹산동 1273-142,35.1202978,128.8999131,,,침수방지,2024-08-09,3360000,부산광역시 강서구
본녹산,부산광역시,강서구,부산광역시 강서구 화전산업대로 232,부산광역시 강서구 녹산동 193-7,35.1096948,128.8892546,,,침수방지,2024-08-09,3360000,부산광역시 강서구
식만,부산광역시,강서구,부산광역시 강서구 식만로 131,부산광역시 강서구 식만동 770-6,35.2061666,128.9070442,,,침수방지,2024-08-09,3360000,부산광역시 강서구
동방,부산광역시,강서구,부산광역시 강서구 유통단지1로 7,부산광역시 강서구 대저2동 3153-4,35.1681951,128.9590276,,,침수방지,2024-08-09,3360000,부산광역시 강서구
성산,부산광역시,강서구,부산광역시 강서구 생곡로 56-1,부산광역시 강서구 녹산동 5-207,35.12527652,128.8991236,,,침수방지,2024-08-09,3360000,부산광역시 강서구
중덕,부산광역시,강서구,부산광역시 강서구 제도로1041번길 206,부산광역시 강서구 강동동 856-5,35.2082617,128.9196538,,,침수방지,2024-08-09,3360000,부산광역시 강서구
상덕,부산광역시,강서구,부산광역시 강서구 상덕로49번길 45-38,부산광역시 강서구 강동동 2066-2,35.19439299,128.906115,,,침수방지,2024-08-09,3360000,부산광역시 강서구
사덕상리,부산광역시,강서구,부산광역시 강서구 대저로274번길 28,부산광역시 강서구 대저1동 2300-4,35.2114803,128.9815251141,,,침수방지,2024-08-09,3360000,부산광역시 강서구
작지,부산광역시,강서구,부산광역시 강서구 공항로393번길 4,부산광역시 강서구 대저2동 5124-2,35.1436126,128.9499484,,,침수방지,2024-08-09,3360000,부산광역시 강서구
성산마을,부산광역시,강서구,부산광역시 강서구 낙동남로682번가길 31,부산광역시 강서구 녹산동 53-1,35.12056459,128.8937174,,,침수방지,2024-08-09,3360000,부산광역시 강서구
범방,부산광역시,강서구,부산광역시 강서구 범방4로 94,부산광역시 강서구 범방동 1890,35.1510128,128.8859512,,,침수방지,2024-08-09,3360000,부산광역시 강서구
명지동진,부산광역시,강서구,부산광역시 강서구 명지국제11로 85,부산광역시 강서구 명지동 3525-1,35.1042217,128.9279024,,,침수방지,2024-08-09,3360000,부산광역시 강서구
사덕,부산광역시,강서구,부산광역시 강서구 공항로 1246,,35.2098508,128.9845591,,,침수방지,2024-08-09,3360000,부산광역시 강서구
신덕,부산광역시,강서구,부산광역시 강서구 체육공원로6번길 28,부산광역시 강서구 대저1동 2785-1,35.2047869951,128.9753728,,,침수방지,2024-08-09,3360000,부산광역시 강서구
덕두,부산광역시,강서구,부산광역시 강서구 공항로811번가길 34,부산광역시 강서구 대저2동 2009-1,35.1782098,128.9565564,,,침수방지,2024-08-09,3360000,부산광역시 강서구
청천 배수장,경상남도,김해시,,경상남도 김해시 진영읍 전리 144-9,35.29844174,128.7392014,055-330-0878,2003.0,수리시설(양배수) 유지관리,2024-08-08,5350000,경상남도 김해시
효동 배수장,경상남도,김해시,,경상남도 김해시 진영읍 설창리 289-5,35.30287521,128.7739442,055-330-0878,1984.0,수리시설(양배수) 유지관리,2024-08-08,5350000,경상남도 김해시
본산 양배수장,경상남도,김해시,,경상남도 김해시 한림면 가산리 303-2,35.3291546728,128.7507599535,055-330-0878,1993.0,수리시설(양배수) 유지관리,2024-08-08,5350000,경상남도 김해시
용성 양배수장,경상남도,김해시,,경상남도 김해시 진영읍 본산리 622-2,35.3208428,128.7433869,055-330-0878,2000.0,수리시설(양배수) 유지관리,2024-08-08,5350000,경상남도 김해시
고모 배수장,경상남도,김해시,,경상남도 김해시 진례면 담안리 245-1,35.26470968,128.7626559,055-330-0878,2017.0,수리시설(양배수) 유지관리,2024-08-08,5350000,경상남도 김해시
모정 배수장,경상남도,김해시,,경상남도 김해시 한림면 금곡리 971-12,35.34977783,128.8078384,055-330-0878,1993.0,수리시설(양배수) 유지관리,2024-08-08,5350000,경상남도 김해시
양지 배수장,경상남도,김해시,,경상남도 김해시 생림면 도요리 590-2,35.2997179719,128.8767666632,055-330-0878,2008.0,수리시설(양배수) 유지관리,2024-08-08,5350000,경상남도 김해시
매리 배수장,경상남도,김해시,,경상남도 김해시 상동면 매리 1234,35.3178198,128.9552508,055-330-0878,2012.0,수리시설(양배수) 유지관리,2024-08-08,5350000,경상남도 김해시
대감 배수장,경상남도,김해시,,경상남도 김해시 상동면 매리 산86-3,35.3184420355,128.948177607,055-330-0878,1976.0,수리시설(양배수) 유지관리,2024-08-08,5350000,경상남도 김해시
새들재 배수장,경상남도,김해시,,경상남도 김해시 상동면 매리 1246,35.31988957,128.961357,055-330-0878,2012.0,수리시설(양배수) 유지관리,2024-08-08,5350000,경상남도 김해시
여차 배수장,경상남도,김해시,,경상남도 김해시 상동면 여차리 1560,35.36119096,128.8993475,055-330-0878,2012.0,수리시설(양배수) 유지관리,2024-08-08,5350000,경상남도 김해시
용덕 배수장,경상남도,김해시,,경상남도 김해시 주촌면 천곡리 1230-8,35.22344954,128.8418329,055-330-0878,2006.0,수리시설(양배수) 유지관리,2024-08-08,5350000,경상남도 김해시
봉암 배수장,경상남도,김해시,,경상남도 김해시 상동면 대감리 1375,35.3159998234,128.9405374,055-330-0878,2021.0,수리시설(양배수) 유지관리,2024-08-08,5350000,경상남도 김해시
안하2 배수장,경상남도,김해시,,경상남도 김해시 한림면 안하리 769-6,35.30674415,128.8236404,055-330-0878,2021.0,수리시설(양배수) 유지관리,2024-08-08,5350000,경상남도 김해시
안동배수펌프장,경상남도,김해시,,경상남도 김해시 불암동 264-1,35.22021029,128.9223294556,055-330-4867,2009.0,주거지 등 침수예방,2024-08-08,5350000,경상남도 김해시
삼정배수펌프장,경상남도,김해시,,경상남도 김해시 삼정동 171,35.22753948,128.904547,055-330-4867,2006.0,주거지 등 침수예방,2024-08-08,5350000,경상남도 김해시
삼정2배수펌프장,경상남도,김해시,,경상남도 김해시 삼정동 456-8,35.22572765,128.898507,055-330-4867,2018.0,주거지 등 침수예방,2024-08-08,5350000,경상남도 김해시
회현배수펌프장,경상남도,김해시,,경상남도 김해시 강동 452-3,35.2138008,128.8839713453,055-330-4867,2010.0,주거지 등 침수예방,2024-08-08,5350000,경상남도 김해시
외동배수펌프장,경상남도,김해시,,경상남도 김해시 전하동 1226,35.19995145,128.8633447,055-330-4867,2012.0,주거지 등 침수예방,2024-08-08,5350000,경상남도 김해시
전하배수펌프장,경상남도,김해시,,경상남도 김해시 전하동 647-1,35.22078997,128.8673883,055-330-4867,2012.0,주거지 등 침수예방,2024-08-08,5350000,경상남도 김해시
봉황배수펌프장,경상남도,김해시,,경상남도 김해시 봉황동 456-1,35.2341397146,128.8729527171,055-330-4867,2010.0,주거지 등 침수예방,2024-08-08,5350000,경상남도 김해시
봉황대배수펌프장,경상남도,김해시,,경상남도 김해시 봉황동 469-2,35.22998287,128.8738361,055-330-4867,2012.0,주거지 등 침수예방,2024-08-08,5350000,경상남도 김해시
봉황대2배수펌프장,경상남도,김해시,,경상남도 김해시 봉황동 46-10,35.22587549,128.8760109701,055-330-4867,2021.0,주거지 등 침수예방,2024-08-08,5350000,경상남도 김해시
흥동맨홀배수펌프장,경상남도,김해시,,경상남도 김해시 흥동 544-61,35.22260833,128.8525343,055-330-4867,2012.0,주거지 등 침수예방,2024-08-08,5350000,경상남도 김해시
선천맨홀배수펌프장,경상남도,김해시,,경상남도 김해시 풍유동 854,35.22488919,128.8486475,055-330-4867,2018.0,주거지 등 침수예방,2024-08-08,5350000,경상남도 김해시
전하배수펌프장,경상남도,김해시,,경상남도 김해시 삼정동 559-55,35.21660932,128.9004164,055-330-4867,2018.0,주거지 등 침수예방,2024-08-08,5350000,경상남도 김해시
주호배수펌프장,경상남도,김해시,,경상남도 김해시 진영읍 진영리 1755,35.3153906946,128.7345684735,055-330-4867,2015.0,주거지 등 침수예방,2024-08-08,5350000,경상남도 김해시
진영동산배수펌프장,경상남도,김해시,,경상남도 김해시 진영읍 방동리 366,35.28494329,128.7129693,055-330-4867,2015.0,주거지 등 침수예방,2024-08-08,5350000,경상남도 김해시
농소배수펌프장,경상남도,김해시,,경상남도 김해시 주촌면 농소리 621-3,35.21623204,128.8309848231,055-330-4867,2012.0,주거지 등 침수예방,2024-08-08,5350000,경상남도 김해시
사덕배수펌프장,경상남도,김해시,,경상남도 김해시 주촌면 농소리 644-7,35.21029114,128.8284841,055-330-4867,2012.0,주거지 등 침수예방,2024-08-08,5350000,경상남도 김해시
천곡1배수펌프장,경상남도,김해시,,경상남도 김해시 주촌면 천곡리 56-1,35.23764264,128.8306853,055-330-4867,2012.0,주거지 등 침수예방,2024-08-08,5350000,경상남도 김해시
천곡2배수펌프장,경상남도,김해시,,경상남도 김해시 주촌면 천곡리 724-11,35.2348238849,128.8314120198,055-330-4867,2012.0,주거지 등 침수예방,2024-08-08,5350000,경상남도 김해시
천곡3배수펌프장,경상남도,김해시,,경상남도 김해시 주촌면 천곡리 917-13,35.2330163187,128.8322088,055-330-4867,2012.0,주거지 등 침수예방,2024-08-08,5350000,경상남도 김해시
한림토정배수펌프장,경상남도,김해시,,경상남도 김해시 한림면 장방리 288-1,35.31508591,128.797969,055-330-4867,1998.0,주거지 등 침수예방,2024-08-08,5350000,경상남도 김해시
한림1구배수펌프장,경상남도,김해시,,경상남도 김해시 한림면 장방리 228-8,35.31825979,128.8032571,055-330-4867,1997.0,주거지 등 침수예방,2024-08-08,5350000,경상남도 김해시
감노배수펌프장,경상남도,김해시,,경상남도 김해시 상동면 감노리 299-11,35.35081214,128.9215566691,055-330-4867,2002.0,주거지 등 침수예방,2024-08-08,5350000,경상남도 김해시
신곡배수펌프장,경상남도,김해시,,경상남도 김해시 상동면 감노리 231-30,35.3460077,128.9272765,055-330-4867,2002.0,주거지 등 침수예방,2024-08-08,5350000,경상남도 김해시
화현배수펌프장,경상남도,김해시,,경상남도 김해시 상동면 감노리 684,35.3368111416,128.9388825061,055-330-4867,2002.0,주거지 등 침수예방,2024-08-08,5350000,경상남도 김해시
안막배수펌프장,경상남도,김해시,,부산광역시 강서구 대저1동 670-233,35.23195115,128.9935932,055-330-4867,2021.0,주거지 등 침수예방,2024-08-08,5350000,경상남도 김해시
능동교배수펌프장,경상남도,김해시,,경상남도 김해시 부곡동 1167-1,35.2002368457,128.8026088141,055-330-4867,2022.0,주거지 등 침수예방,2024-08-08,5350000,경상남도 김해시
불암동 지하차도,경상남도,김해시,,경상남도 김해시 불암동221-2,35.22015309,128.92715858,055-330-4667,2010.0,도로 침수예방,2024-08-08,5350000,경상남도 김해시
동김해 지하차도,경상남도,김해시,,경상남도 김해시 삼정동169-1,35.22834919,128.9042881039,055-330-4667,2009.0,도로 침수예방,2024-08-08,5350000,경상남도 김해시
장유 무계지하차도,경상남도,김해시,,경상남도 김해시 무계동391-16,35.1997524126,128.8116662693,055-330-4667,2000.0,도로 침수예방,2024-08-08,5350000,경상남도 김해시
진례 테크노벨리 배수장,경상남도,김해시,,경상남도 김해시 진례면 고모리1304-6,35.2712973045,128.7652957888,055-330-4667,2018.0,도로 침수예방,2024-08-08,5350000,경상남도 김해시
한림 장방배수장,경상남도,김해시,,경상남도 김해시 한림면 장방리1253-60,35.3185153895,128.8025665,055-330-4667,2004.0,도로 침수예방,2024-08-08,5350000,경상남도 김해시
주촌 천곡 맨홀 펌프장,경상남도,김해시,,경상남도 김해시 주촌면 천곡리119-19번지,35.24135702,128.8292839,055-330-4667,2012.0,도로 침수예방,2024-08-08,5350000,경상남도 김해시
광안하수펌프장,부산광역시,수영구,부산광역시 수영구 광안해변로54번길 222,부산광역시 수영구 남천동148-100,35.14614421,129.1153254,051-610-4675,1992.0,하수처리,2024-08-07,3380000,부산광역시 수영구
검단배수펌프장,인천광역시,서구,인천광역시 서구 원당대로157번길 8,인천광역시 서구 오류동 1665-1,37.5909898711,126.620416524,032-560-5980,2012.0,저지대 침수 방지,2024-07-31,3560000,인천광역시 서구
가정배수펌프장,인천광역시,서구,,인천광역시 서구 신현동 307-14,37.5214999753,126.6639483508,032-560-5980,2015.0,저지대 침수 방지,2024-07-31,3560000,인천광역시 서구
가좌배수펌프장,인천광역시,서구,인천광역시 서구 가재울로6번길 2,인천광역시 서구 가좌3동 550,37.4817250427,126.6750426483,032-560-5980,1987.0,저지대 침수 방지,2024-07-31,3560000,인천광역시 서구
경서1배수펌프장,인천광역시,서구,,인천광역시 서구 오류동 1608,37.5652502019,126.6248180361,032-560-5980,2015.0,저지대 침수 방지,2024-07-31,3560000,인천광역시 서구
경서2배수펌프장,인천광역시,서구,,인천광역시 서구 오류동 1608,37.5652502019,126.6248180361,032-560-5980,2015.0,저지대 침수 방지,2024-07-31,3560000,인천광역시 서구
왕길배수펌프장,인천광역시,서구,인천광역시 서구 원당대로 332-1,인천광역시 서구 왕길동 64-308,37.5852390806,126.6404561874,032-560-5980,2015.0,저지대 침수 방지,2024-07-31,3560000,인천광역시 서구
백석배수펌프장,인천광역시,서구,,인천광역시 서구 백석동 152-72,37.5729674579,126.6612903244,032-560-5980,2015.0,저지대 침수 방지,2024-07-31,3560000,인천광역시 서구
